,N,0.649,K,A*2E
$GPGGA,063027.00,3958.46720,N,11619.75226,E,1,07,1.53,104.9,M,-8.7,M,,*48
$GPGSA,A,3,07,11,13,08,19,09,01,,,,,,2.47,1.53,1.95*04
$GPGSV,4,1,14,01,41,172,29,03,33,059,22,06,15,060,19,07,66,243,46*71
$GPGSV,4,2,14,08,49,305,43,09,38,308,22,11,66,162,29,13,05,212,43*78
$GPGSV,4,3,14,19,56,044,26,22,04,058,18,26,07,319,,27,26,055,*7D
$GPGSV,4,4,14,28,23,299,,42,38,145,29*73
$GPGLL,3958.46720,N,11619.75226,E,063027.00,A,A*63
$GPRMC,063028.00,A,3958.46704,N,11619.75109,E,0.019,,220713,,,A*70
$GPVTG,,T,,M,0.019,N,0.035,K,A*2D
$GPGGA,063028.00,3958.46704,N,11619.75109,E,1,07,1.53,105.4,M,-8.7,M,,*43
$GPGSA,A,3,07,11,13,08,19,09,01,,,,,,2.47,1.53,1.95*04
$GPGSV,4,1,14,01,41,172,29,03,33,059,21,06,15,060,20,07,66,243,46*78
$GPGSV,4,2,14,08,49,305,43,09,38,308,23,11,66,162,31,13,05,212,43*70
$GPGSV,4,3,14,19,56,044,27,22,04,058,16,26,07,319,,27,26,055,*72
$GPGSV,4,4,14,28,23,299,,42,38,145,29*73
$GPGLL,3958.46704,N,11619.75109,E,063028.00,A,A*64
$GPRMC,063029.00,A,3958.46687,N,11619.74987,E,0.114,,220713,,,A*78
$GPVTG,,T,,M,0.114,N,0.212,K,A*26
$GPGGA,063029.00,3958.46687,N,11619.74987,E,1,07,1.53,106.0,M,-8.7,M,,*40
$GPGSA,A,3,07,11,13,08,19,09,01,,,,,,2.47,1.53,1.95*04
$GPGSV,4,1,14,01,41,172,29,03,33,059,20,06,15,060,21,07,66,243,46*78
$GPGSV,4,2,14,08,49,305,43,09,38,308,23,11,66,162,32,13,05,212,43*73
$GPGSV,4,3,14,19,56,044,27,22,04,058,12,26,07,319,,27,26,055,*76
$GPGSV,4,4,14,28,23,299,,42,38,145,29*73
$GPGLL,3958.46687,N,11619.74987,E,063029.00,A,A*60
$GPRMC,063030.00,A,3958.46680,N,11619.74923,E,0.062,,220713,,,A*79
$GPVTG,,T,,M,0.062,N,0.115,K,A*22
$GPGGA,063030.00,3958.46680,N,11619.74923,E,1,07,1.53,106.2,M,-8.7,M,,*43
$GPGSA,A,3,07,11,13,08,19,09,01,,,,,,2.47,1.53,1.95*04
$GPGSV,4,1,14,01,41,172,28,03,33,059,24,06,15,060,22,07,66,243,46*7E
$GPGSV,4,2,14,08,49,305,43,09,38,308,23,11,66,162,31,13,05,212,43*70
$GPGSV,4,3,14,19,56,044,27,22,04,058,09,26,07,319,,27,26,055,*7C
$GPGSV,4,4,14,28,23,299,,42,38,145,28*72
$GPGLL,3958.46680,N,11619.74923,E,063030.00,A,A*61
$GPRMC,063031.00,A,3958.46677,N,11619.74879,E,0.118,,220713,,,A*72
$GPVTG,,T,,M,0.118,N,0.219,K,A*21
$GPGGA,063031.00,3958.46677,N,11619.74879,E,1,07,1.53,106.2,M,-8.7,M,,*44
$GPGSA,A,3,07,11,13,08,19,09,01,,,,,,2.47,1.53,1.95*04
$GPGSV,4,1,14,01,41,172,27,03,33,059,22,06,15,060,22,07,66,243,46*77
$GPGSV,4,2,14,08,49,305,43,09,38,308,24,11,66,162,31,13,05,212,43*77
$GPGSV,4,3,14,19,56,044,27,22,04,058,08,26,07,319,,27,26,055,*7D
$GPGSV,4,4,14,28,23,299,,42,38,145,28*72
$GPGLL,3958.46677,N,11619.74879,E,063031.00,A,A*66
$GPRMC,063032.00,A,3958.46675,N,11619.74839,E,0.017,,220713,,,A*79
$GPVTG,,T,,M,0.017,N,0.031,K,A*27
$GPGGA,063032.00,3958.46675,N,11619.74839,E,1,07,1.53,106.2,M,-8.7,M,,*41
$GPGSA,A,3,07,11,13,08,19,09,01,,,,,,2.47,1.53,1.95*04
$GPGSV,4,1,14,01,41,172,27,03,33,059,20,06,15,060,22,07,66,243,46*75
$GPGSV,4,2,14,08,49,305,43,09,38,308,25,11,66,162,31,13,05,212,43*76
$GPGSV,4,3,14,19,56,044,27,22,04,058,08,26,07,319,,27,26,055,23*7C
$GPGSV,4,4,14,28,23,299,,42,38,145,28*72
$GPGLL,3958.46675,N,11619.74839,E,063032.00,A,A*63
$GPRMC,063033.00,A,3958.46678,N,11619.74829,E,0.002,,220713,,,A*70
$GPVTG,,T,,M,0.002,N,0.004,K,A*25
$GPGGA,063033.00,3958.46678,N,11619.74829,E,1,07,1.53,106.1,M,-8.7,M,,*4F
$GPGSA,A,3,07,11,13,08,19,09,01,,,,,,2.47,1.53,1.95*04
$GPGSV,4,1,14,01,41,172,27,03,33,059,19,06,15,060,22,07,66,243,46*7F
$GPGSV,4,2,14,08,49,305,43,09,38,308,25,11,66,162,30,13,05,212,43*77
$GPGSV,4,3,14,19,56,044,27,22,04,058,08,26,07,319,,27,26,055,24*7B
$GPGSV,4,4,14,28,23,299,,42,38,145,27*7D
$GPGLL,3958.46678,N,11619.74829,E,063033.00,A,A*6E
$GPRMC,063034.00,A,3958.46684,N,11619.74838,E,0.061,,220713,,,A*71
$GPVTG,,T,,M,0.061,N,0.113,K,A*27
$GPGGA,063034.00,3958.46684,N,11619.74838,E,1,07,1.53,105.8,M,-8.7,M,,*41
$GPGSA,A,3,07,11,13,08,19,09,01,,,,,,2.47,1.53,1.94*05
$GPGSV,4,1,13,01,41,172,26,03,33,059,19,06,15,060,21,07,66,243,46*7A
$GPGSV,4,2,13,08,49,305,43,09,38,308,25,11,66,162,30,13,05,212,43*70
$GPGSV,4,3,13,19,56,044,27,22,04,058,08,26,07,319,,27,26,055,24*7C
$GPGSV,4,4,13,28,23,299,*42
$GPGLL,3958.46684,N,11619.74838,E,063034.00,A,A*6A
$GPRMC,063035.00,A,3958.46690,N,11619.74852,E,0.051,,220713,,,A*7A
$GPVTG,,T,,M,0.051,N,0.094,K,A*2A
$GPGGA,063035.00,3958.46690,N,11619.74852,E,1,07,1.52,105.5,M,-8.7,M,,*45
$GPGSA,A,3,07,11,13,08,19,09,01,,,,,,2.47,1.52,1.94*04
$GPGSV,4,1,13,01,41,172,25,03,33,059,16,06,15,060,20,07,66,243,46*77
$GPGSV,4,2,13,08,49,305,43,09,38,308,25,11,66,162,30,13,05,212,43*70
$GPGSV,4,3,13,19,56,044,27,22,04,058,14,26,07,319,,27,26,055,23*76
$GPGSV,4,4,13,28,23,299,*42
$GPGLL,3958.46690,N,11619.74852,E,063035.00,A,A*62
$GPRMC,063036.00,A,3958.46697,N,11619.74866,E,0.212,,220713,,,A*7C
$GPVTG,,T,,M,0.212,N,0.392,K,A*2A
$GPGGA,063036.00,3958.46697,N,11619.74866,E,1,07,1.52,105.2,M,-8.7,M,,*41
$GPGSA,A,3,07,11,13,08,19,09,01,,,,,,2.47,1.52,1.94*04
$GPGSV,4,1,13,01,41,172,24,03,33,059,14,06,15,060,20,07,66,243,47*75
$GPGSV,4,2,13,08,49,305,43,09,38,308,26,11,66,162,29,13,05,212,43*7B
$GPGSV,4,3,13,19,56,044,27,22,04,058,14,26,07,319,,27,26,055,23*76
$GPGSV,4,4,13,28,23,299,*42
$GPGLL,3958.46697,N,11619.74866,E,063036.00,A,A*61
$GPRMC,063037.00,A,3958.46702,N,11619.74877,E,0.071,,220713,,,A*77
$GPVTG,,T,,M,0.071,N,0.132,K,A*25
$GPGGA,063037.00,3958.46702,N,11619.74877,E,1,07,1.52,105.0,M,-8.7,M,,*4F
$GPGSA,A,3,07,11,13,08,19,09,01,,,,,,2.47,1.52,1.94*04
$GPGSV,4,1,13,01,41,172,23,03,33,059,11,06,15,060,19,07,66,243,47*7D
$GPGSV,4,2,13,08,49,305,43,09,38,308,26,11,66,162,28,13,05,212,43*7A
$GPGSV,4,3,13,19,56,044,26,22,04,058,14,26,07,319,,27,26,055,22*76
$GPGSV,4,4,13,28,23,299,*42
$GPGLL,3958.46702,N,11619.74877,E,063037.00,A,A*6D
$GPRMC,063038.00,A,3958.46709,N,11619.74893,E,0.067,,220713,,,A*7E
$GPVTG,,T,,M,0.067,N,0.125,K,A*24
$GPGGA,063038.00,3958.46709,N,11619.74893,E,1,07,1.52,104.7,M,-8.7,M,,*47
$GPGSA,A,3,07,11,13,08,19,09,01,,,,,,2.47,1.52,1.94*04
$GPGSV,4,1,13,01,41,172,22,03,33,059,09,06,15,060,20,07,66,243,47*7F
$GPGSV,4,2,13,08,49,305,43,09,38,308,25,11,66,162,28,13,05,212,43*79
$GPGSV,4,3,13,19,56,044,26,22,04,058,14,26,07,319,,27,26,055,23*77
$GPGSV,4,4,13,28,23,299,*42
$GPGLL,3958.46709,N,11619.74893,E,063038.00,A,A*63
$GPRMC,063039.00,A,3958.46718,N,11619.74912,E,0.243,,220713,,,A*73
$GPVTG,,T,,M,0.243,N,0.450,K,A*27
$GPGGA,063039.00,3958.46718,N,11619.74912,E,1,07,1.52,104.4,M,-8.7,M,,*4D
$GPGSA,A,3,07,11,13,08,19,09,01,,,,,,2.47,1.52,1.94*04
$GPGSV,4,1,13,01,41,172,22,03,33,059,08,06,15,060,21,07,66,243,47*7F
$GPGSV,4,2,13,08,49,305,43,09,38,308,24,11,66,162,26,13,05,212,43*76
$GPGSV,4,3,13,19,56,044,24,22,04,058,14,26,07,319,,27,26,055,22*74
$GPGSV,4,4,13,28,23,299,*42
$GPGLL,3958.46718,N,11619.74912,E,063039.00,A,A*6A
